[{"model": "webapp.barangay", "pk": 1, "fields": {"name": "Barangay 1", "latitude": 8.161079, "longitude": 125.130855}}, {"model": "webapp.barangay", "pk": 2, "fields": {"name": "Barangay 2", "latitude": 8.157315, "longitude": 125.127137}}, {"model": "webapp.barangay", "pk": 3, "fields": {"name": "Barangay 3", "latitude": 8.157953, "longitude": 125.12256}}, {"model": "webapp.barangay", "pk": 4, "fields": {"name": "Barangay 4", "latitude": 8.152597, "longitude": 125.126244}}, {"model": "webapp.barangay", "pk": 5, "fields": {"name": "Barangay 5", "latitude": 8.15539, "longitude": 125.128606}}, {"model": "webapp.barangay", "pk": 6, "fields": {"name": "Barangay 6", "latitude": 8.155436, "longitude": 125.129731}}, {"model": "webapp.barangay", "pk": 7, "fields": {"name": "Casisang", "latitude": 8.135152, "longitude": 125.127398}}, {"model": "webapp.barangay", "pk": 8, "fields": {"name": "Casisang 2", "latitude": 8.144218, "longitude": 125.120991}}, {"model": "webapp.barangay", "pk": 9, "fields": {"name": "Casisang 3", "latitude": 8.140145, "longitude": 125.122545}}, {"model": "webapp.barangay", "pk": 10, "fields": {"name": "Barangay 7", "latitude": 8.149554, "longitude": 125.1306}}, {"model": "webapp.barangay", "pk": 11, "fields": {"name": "Barangay 8", "latitude": 8.153223, "longitude": 125.129575}}, {"model": "webapp.barangay", "pk": 12, "fields": {"name": "Barangay 9", "latitude": 8.149395, "longitude": 125.133058}}, {"model": "webapp.barangay", "pk": 13, "fields": {"name": "Barangay 10", "latitude": 8.151, "longitude": 125.124188}}, {"model": "webapp.barangay", "pk": 14, "fields": {"name": "Barangay 11", "latitude": 8.147985, "longitude": 125.125131}}, {"model": "webapp.barangay", "pk": 15, "fields": {"name": "Imbayao", "latitude": 8.128356, "longitude": 125.044412}}, {"model": "webapp.barangay", "pk": 16, "fields": {"name": "Can-ayan", "latitude": 8.184061, "longitude": 125.155038}}, {"model": "webapp.barangay", "pk": 17, "fields": {"name": "Kilap-agan", "latitude": 8.160345, "longitude": 125.231415}}, {"model": "webapp.barangay", "pk": 18, "fields": {"name": "Capitan Anghel", "latitude": 8.1465721, "longitude": 125.0207984}}, {"model": "webapp.barangay", "pk": 19, "fields": {"name": "Dalwangan", "latitude": 8.201368, "longitude": 125.041969}}, {"model": "webapp.barangay", "pk": 20, "fields": {"name": "Kalasungay", "latitude": 8.172144, "longitude": 125.102141}}, {"model": "webapp.barangay", "pk": 21, "fields": {"name": "Manalog", "latitude": 8.293894, "longitude": 125.152639}}, {"model": "webapp.barangay", "pk": 22, "fields": {"name": "Kibalabag", "latitude": 8.148616, "longitude": 125.308041}}, {"model": "webapp.barangay", "pk": 23, "fields": {"name": "Patpat", "latitude": 8.194977, "longitude": 125.059552}}, {"model": "webapp.barangay", "pk": 24, "fields": {"name": "Sumpong", "latitude": 8.164069, "longitude": 125.1194}}, {"model": "webapp.barangay", "pk": 25, "fields": {"name": "Aglayan", "latitude": 8.054176, "longitude": 125.136454}}, {"model": "webapp.barangay", "pk": 26, "fields": {"name": "Bangcud", "latitude": 7.992709, "longitude": 125.138016}}, {"model": "webapp.barangay", "pk": 27, "fields": {"name": "Cabangahan", "latitude": 8.01823, "longitude": 125.13683}}, {"model": "webapp.barangay", "pk": 28, "fields": {"name": "Laguitas", "latitude": 8.086141, "longitude": 125.131535}}, {"model": "webapp.barangay", "pk": 29, "fields": {"name": "Linabo", "latitude": 8.055039, "longitude": 125.153347}}, {"model": "webapp.barangay", "pk": 30, "fields": {"name": "Magsaysay", "latitude": 8.095792, "longitude": 125.098116}}, {"model": "webapp.barangay", "pk": 31, "fields": {"name": "Mapayag", "latitude": 8.09536, "longitude": 125.05839}}, {"model": "webapp.barangay", "pk": 32, "fields": {"name": "San Jose", "latitude": 8.103646, "longitude": 125.128478}}, {"model": "webapp.barangay", "pk": 33, "fields": {"name": "Apo Macote", "latitude": 7.976708, "longitude": 125.207722}}, {"model": "webapp.barangay", "pk": 34, "fields": {"name": "Dapulan", "latitude": 7.972899, "longitude": 125.2330899}}, {"model": "webapp.barangay", "pk": 35, "fields": {"name": "Maligaya", "latitude": 8.041315, "longitude": 125.206586}}, {"model": "webapp.barangay", "pk": 36, "fields": {"name": "Managok", "latitude": 8.027237, "longitude": 125.190106}}, {"model": "webapp.barangay", "pk": 37, "fields": {"name": "Miglamin", "latitude": 8.038954, "longitude": 125.23951}}, {"model": "webapp.barangay", "pk": 38, "fields": {"name": "San Martin", "latitude": 7.999756, "longitude": 125.196361}}, {"model": "webapp.barangay", "pk": 39, "fields": {"name": "Sto. Ni\u00f1o", "latitude": 7.978422, "longitude": 125.165159}}, {"model": "webapp.barangay", "pk": 40, "fields": {"name": "Simaya", "latitude": 8.002154, "longitude": 125.159864}}, {"model": "webapp.barangay", "pk": 41, "fields": {"name": "Sinanglanan", "latitude": 7.99098, "longitude": 125.195659}}, {"model": "webapp.barangay", "pk": 42, "fields": {"name": "Violeta", "latitude": 8.028638, "longitude": 125.153847}}, {"model": "webapp.barangay", "pk": 43, "fields": {"name": "Busdi", "latitude": 8.327292, "longitude": 125.229721}}, {"model": "webapp.barangay", "pk": 44, "fields": {"name": "Caburacanan", "latitude": 8.251627, "longitude": 125.247246}}, {"model": "webapp.barangay", "pk": 45, "fields": {"name": "Indalasa", "latitude": 8.163687, "longitude": 125.340089}}, {"model": "webapp.barangay", "pk": 46, "fields": {"name": "Kulaman", "latitude": 8.288428, "longitude": 125.247527}}, {"model": "webapp.barangay", "pk": 47, "fields": {"name": "Mapulo", "latitude": 8.193953, "longitude": 125.269329}}, {"model": "webapp.barangay", "pk": 48, "fields": {"name": "St. Peter", "latitude": 8.262965, "longitude": 125.293978}}, {"model": "webapp.barangay", "pk": 49, "fields": {"name": "Sila-e", "latitude": 8.157032, "longitude": 125.269203}}, {"model": "webapp.barangay", "pk": 50, "fields": {"name": "Zamboanguita", "latitude": 8.20808, "longitude": 125.315442}}, {"model": "webapp.barangay", "pk": 51, "fields": {"name": "Lalawan", "latitude": 8.0686496, "longitude": 125.1758743}}]